,City,Cloudiness,Country,Date,Humidity,Temp,Lat,Lng,Wind Speed
0,okha,0,RU,1579796382,96,-11.38,53.57,142.95,6.42
1,otradnoye,73,RU,1579796382,67,32.0,59.78,30.82,8.95
2,nouakchott,100,MR,1579796304,9,93.2,18.09,-15.98,12.75
3,dikson,100,RU,1579796382,97,-12.12,73.51,80.55,14.43
4,aklavik,20,CA,1579796382,74,-22.0,68.22,-135.01,5.82
5,vaini,40,TO,1579796382,88,77.0,-21.2,-175.2,2.24
6,carnarvon,0,AU,1579796160,78,77.0,-24.87,113.63,20.8
7,san quintin,0,MX,1579796383,89,54.36,30.48,-115.95,1.88
8,olafsvik,100,IS,1579796383,60,29.86,64.89,-23.71,51.16
9,ribeira grande,75,PT,1579796383,67,59.0,38.52,-28.7,6.93
10,busselton,0,AU,1579796384,49,61.0,-33.65,115.33,13.22
11,albany,75,US,1579796384,68,37.0,42.6,-73.97,1.45
12,talnakh,75,RU,1579796151,84,1.4,69.49,88.4,22.37
13,faanui,71,PF,1579796210,78,81.59,-16.48,-151.75,12.03
14,kodiak,90,US,1579796384,57,23.0,57.79,-152.41,16.11
15,tuatapere,60,NZ,1579796385,92,54.0,-46.13,167.68,1.01
16,puerto ayora,20,EC,1579796385,74,80.6,-0.74,-90.35,6.93
17,khatanga,100,RU,1579796385,85,-28.05,71.97,102.5,9.46
18,chokurdakh,60,RU,1579796385,93,-31.58,70.63,147.92,8.79
19,bubaque,95,GW,1579796385,49,82.22,11.28,-15.83,5.01
20,atuona,6,PF,1579796385,78,80.65,-9.8,-139.03,13.51
21,kruisfontein,58,ZA,1579796385,66,70.45,-34.0,24.73,18.07
22,coihaique,75,CL,1579796386,45,62.6,-45.58,-72.07,17.22
23,yerbogachen,100,RU,1579796386,95,-6.95,61.28,108.01,7.4
24,bluff,5,NZ,1579796386,92,54.0,-46.6,168.33,1.01
25,mount isa,100,AU,1579796386,78,80.6,-20.73,139.5,10.29
26,leningradskiy,59,RU,1579796136,85,-23.85,69.38,178.42,1.32
27,thinadhoo,100,MV,1579796386,81,84.22,0.53,72.93,18.05
28,salalah,75,OM,1579796387,73,77.0,17.02,54.09,6.93
29,cape town,0,ZA,1579796263,39,82.99,-33.93,18.42,17.22
30,new norfolk,8,AU,1579796387,58,54.0,-42.78,147.06,13.87
31,saldanha,0,ZA,1579796387,30,86.0,-33.01,17.94,19.46
32,sobolevo,0,RU,1579796387,61,27.63,54.43,31.9,12.62
33,nanortalik,100,GL,1579796387,61,22.95,60.14,-45.24,4.23
34,tiksi,26,RU,1579796134,84,-28.59,71.69,128.87,3.6
35,sawakin,0,SD,1579796388,60,71.37,19.11,37.33,19.37
36,taoudenni,74,ML,1579796388,12,86.27,22.68,-3.98,6.6
37,hasaki,75,JP,1579796388,100,46.4,35.73,140.83,8.05
38,rikitea,0,PF,1579796388,79,78.84,-23.12,-134.97,18.57
39,samoded,98,RU,1579796388,91,22.35,63.61,40.51,9.42
40,reci,88,RO,1579796388,67,30.99,45.85,25.93,5.01
41,buala,0,SB,1579796388,78,78.58,-8.14,159.59,5.19
42,veraval,92,IN,1579796388,56,68.18,20.9,70.37,0.83
43,yashan,1,CN,1579796389,89,66.04,22.2,109.94,7.52
44,astoria,90,US,1579796364,93,53.01,46.19,-123.83,24.16
45,mar del plata,40,AR,1579796111,51,91.0,-38.0,-57.56,13.87
46,bandundu,0,CD,1579796389,39,93.2,-3.32,17.37,7.34
47,male,75,MV,1579796308,83,84.2,4.17,73.51,24.16
48,barrow,1,US,1579796389,76,-11.2,71.29,-156.79,10.29
49,kapaa,1,US,1579796389,88,69.8,22.08,-159.32,5.82
50,cherskiy,100,RU,1579796389,100,-36.35,68.75,161.3,3.24
51,espera feliz,100,BR,1579796390,92,71.38,-20.65,-41.91,5.14
52,kargasok,100,RU,1579796390,93,24.93,59.06,80.86,15.64
53,ruwi,0,OM,1579796390,51,80.6,23.6,58.55,10.29
54,port elizabeth,40,ZA,1579796390,73,71.6,-33.92,25.57,13.87
55,haines junction,100,CA,1579796390,96,0.68,60.75,-137.51,5.68
56,zatoka,20,UA,1579796390,44,39.2,46.07,30.47,20.13
57,bengkulu,99,ID,1579796385,95,74.61,-3.8,102.27,5.28
58,gari,100,RU,1579796391,91,15.94,59.43,62.35,5.99
59,mayumba,17,GA,1579796391,74,84.27,-3.43,10.66,5.06
60,husavik,90,IS,1579796391,54,30.2,66.04,-17.34,57.49
61,bethel,1,US,1579796391,59,41.0,41.37,-73.41,2.24
62,koumra,27,TD,1579796391,6,93.13,8.91,17.55,7.02
63,hofn,20,IS,1579796391,58,32.0,64.25,-15.21,21.92
64,yulara,0,AU,1579796391,28,82.4,-25.24,130.99,13.87
65,saint-philippe,90,RE,1579796392,83,82.4,-21.36,55.77,9.17
66,bowie,90,US,1579796392,100,42.8,33.45,-94.43,9.17
67,petropavlovsk-kamchatskiy,0,RU,1579796392,64,-4.0,53.05,158.65,4.47
68,butaritari,32,KI,1579796136,71,84.07,3.07,172.79,8.37
69,ushuaia,75,AR,1579796392,66,57.2,-54.8,-68.3,3.36
70,karasjok,75,NO,1579796392,92,19.4,69.47,25.51,44.96
71,jamestown,1,US,1579796190,59,35.01,42.1,-79.24,4.7
72,rumuruti,100,KE,1579796393,59,67.87,0.27,36.54,9.53
73,qaanaaq,100,GL,1579796393,91,-5.67,77.48,-69.36,3.2
74,narsaq,75,GL,1579796393,44,17.6,60.92,-46.05,13.87
75,litovko,100,RU,1579796393,98,-1.1,49.24,135.17,5.32
76,ondo,23,NG,1579796393,9,101.39,7.1,4.83,5.21
77,hobart,20,AU,1579796393,58,54.0,-42.88,147.33,13.87
78,punta arenas,40,CL,1579796394,50,59.0,-53.15,-70.92,18.34
79,omsukchan,100,RU,1579796394,99,-36.49,62.53,155.8,4.0
80,acapulco,20,MX,1579796394,78,80.6,16.86,-99.89,3.36
81,avarua,75,CK,1579796195,94,78.8,-21.21,-159.78,9.17
82,neuquen,0,AR,1579796394,33,91.4,-38.95,-68.06,9.17
83,aldan,100,RU,1579796394,91,-23.93,58.6,125.39,6.91
84,palmer,1,US,1579796289,68,41.0,42.16,-72.33,3.36
85,severo-kurilsk,89,RU,1579796315,87,12.29,50.68,156.12,6.53
86,beyneu,100,KZ,1579796395,75,40.12,45.32,55.2,12.88
87,guerrero negro,0,MX,1579796395,81,57.56,27.98,-114.06,3.56
88,thompson,40,CA,1579796208,83,-4.0,55.74,-97.86,3.36
89,bredasdorp,42,ZA,1579796395,60,72.0,-34.53,20.04,19.46
90,pemagatsel,100,BT,1579796395,96,43.02,27.03,91.43,1.14
91,corsicana,90,US,1579796395,93,50.0,32.1,-96.47,10.29
92,cine,0,TR,1579796396,37,51.8,37.61,28.06,13.87
93,soma,40,TR,1579796396,60,42.8,39.19,27.61,11.41
94,provideniya,0,RU,1579796396,79,-14.28,64.38,-173.3,2.17
95,sergeyevka,82,KZ,1579796396,91,23.38,53.88,67.42,9.46
96,arraial do cabo,75,BR,1579796297,78,80.6,-22.97,-42.03,8.05
97,najran,40,SA,1579796396,32,69.8,17.49,44.13,6.93
98,fort nelson,90,CA,1579796397,84,3.2,58.81,-122.7,3.87
99,georgetown,20,MY,1579796100,74,84.2,5.41,100.34,2.24
100,yellowknife,40,CA,1579796395,76,-11.0,62.46,-114.35,6.93
101,hilo,20,US,1579796397,63,66.2,19.73,-155.09,8.05
102,mataura,2,NZ,1579796109,92,54.0,-46.19,168.86,1.01
103,lagoa,100,PT,1579796162,72,56.64,39.05,-27.98,11.63
104,samfya,91,ZM,1579796397,84,73.06,-11.36,29.56,2.24
105,guanica,90,PR,1579796397,74,84.0,17.97,-66.91,11.41
106,eureka,90,US,1579796134,81,57.0,40.8,-124.16,3.06
107,nuuk,100,GL,1579796398,67,23.0,64.18,-51.72,36.91
108,hermanus,0,ZA,1579796326,66,82.0,-34.42,19.23,15.99
109,cancun,20,MX,1579796298,69,75.0,21.17,-86.85,8.05
110,laguna,1,US,1579796398,93,48.99,38.42,-121.42,3.36
111,tadine,0,NC,1579796398,79,73.26,-21.55,167.88,7.72
112,sao filipe,3,CV,1579796399,66,74.95,14.9,-24.5,13.13
113,buckeye,5,US,1579796100,87,53.01,33.37,-112.58,4.7
114,naze,100,JP,1579796399,100,66.2,28.37,129.48,3.36
115,karpathos,40,GR,1579796399,58,57.2,35.51,27.21,20.8
116,sukhinichi,77,RU,1579796287,75,21.51,54.1,35.34,11.5
117,sadovoye,100,RU,1579796399,75,29.55,47.78,44.51,14.52
118,namibe,75,AO,1579796399,74,78.8,-15.2,12.15,13.87
119,monte azul,100,BR,1579796399,94,68.81,-15.15,-42.87,9.28
120,lebu,20,CL,1579796400,54,70.88,-37.62,-73.65,6.67
121,vorukh,98,TJ,1579796400,76,23.99,39.85,70.58,1.61
122,yatou,91,CN,1579796400,80,39.96,37.15,122.38,12.3
123,muravlenko,100,RU,1579796400,93,14.13,63.79,74.52,15.03
124,mendi,100,PG,1579796400,98,54.9,-6.18,143.65,1.92
125,ponta do sol,40,PT,1579796401,55,64.4,32.67,-17.1,4.7
126,alofi,80,NU,1579796401,100,68.0,-19.06,-169.92,1.12
127,nikolskoye,72,RU,1579796401,67,32.0,59.7,30.79,8.95
128,kenai,75,US,1579796401,76,10.99,60.55,-151.26,7.61
129,upernavik,94,GL,1579796401,87,-4.9,72.79,-56.15,4.85
130,sioux lookout,90,CA,1579796134,85,14.0,50.1,-91.92,6.93
131,svetlogorsk,68,BY,1579796220,74,31.32,52.63,29.73,11.27
132,mayo,1,US,1579796402,69,39.2,38.89,-76.51,4.7
133,kalmunai,3,LK,1579796402,77,82.09,7.42,81.82,16.02
134,wajir,26,KE,1579796402,21,98.38,1.75,40.06,11.9
135,fare,7,PF,1579796402,76,81.82,-16.7,-151.02,10.02
136,norman wells,75,CA,1579796402,76,-4.0,65.28,-126.83,2.24
137,port alfred,1,ZA,1579796402,81,71.01,-33.59,26.89,4.0
138,sao joao evangelista,100,BR,1579796394,98,67.37,-18.55,-42.76,4.85
139,hithadhoo,94,MV,1579796403,80,84.61,-0.6,73.08,15.21
140,bokoro,0,TD,1579796403,7,85.93,12.38,17.06,14.52
141,goldsboro,1,US,1579796403,70,45.0,35.38,-77.99,8.05
142,perote,0,MX,1579796403,64,61.03,19.57,-97.23,1.36
143,sfantu gheorghe,88,RO,1579796403,67,30.99,45.87,25.78,5.01
144,pontes e lacerda,100,BR,1579796403,62,86.77,-15.23,-59.34,6.29
145,coquimbo,20,CL,1579796213,60,73.4,-29.95,-71.34,10.29
146,port hedland,0,AU,1579796106,83,84.2,-20.32,118.57,10.29
147,necochea,0,AR,1579796404,48,91.0,-38.55,-58.74,11.99
148,geraldton,0,AU,1579796161,82,68.0,-28.77,114.6,14.99
149,vila franca do campo,40,PT,1579796404,82,55.4,37.72,-25.43,14.99
150,coahuayana,40,MX,1579796404,83,69.8,18.73,-103.68,3.78
151,victoria,20,HK,1579796187,83,73.0,22.29,114.16,5.82
152,bambanglipuro,100,ID,1579796405,89,76.87,-7.95,110.28,3.89
153,uturoa,71,PF,1579796405,78,81.59,-16.73,-151.43,12.03
154,vila velha,40,BR,1579796405,74,82.4,-20.33,-40.29,12.75
155,bulawayo,67,ZW,1579796405,25,87.13,-20.15,28.58,12.5
156,zonguldak,100,TR,1579796405,96,27.75,41.25,31.83,7.31
157,kochkurovo,91,RU,1579796405,92,15.89,54.04,45.42,7.85
158,rawson,65,AR,1579796405,54,69.76,-43.3,-65.1,4.38
159,beringovskiy,100,RU,1579796406,98,7.21,63.05,179.32,7.85
160,tahta,0,EG,1579796165,44,60.8,26.77,31.5,13.87
161,lamu,100,KE,1579796406,84,81.77,-2.27,40.9,18.03
162,xai-xai,2,MZ,1579796292,60,80.85,-25.05,33.64,10.63
163,cabo san lucas,5,MX,1579796253,87,66.99,22.89,-109.91,4.7
164,tasiilaq,20,GL,1579796406,61,14.0,65.61,-37.64,38.03
165,hazorasp,0,UZ,1579796406,80,33.8,41.32,61.07,4.7
166,esperance,90,AU,1579796407,82,62.6,-33.87,121.9,6.93
167,itarantim,100,BR,1579796407,81,75.06,-15.66,-40.07,5.35
168,bathsheba,40,BB,1579796407,83,78.8,13.22,-59.52,16.11
169,quatre cocos,75,MU,1579796407,74,84.2,-20.21,57.76,3.36
170,nabire,94,ID,1579796407,97,72.55,-3.37,135.48,1.79
171,pangnirtung,5,CA,1579796407,61,-22.0,66.15,-65.71,3.38
172,corrente,99,BR,1579796407,73,85.98,-3.74,-43.34,5.12
173,bulnes,73,CL,1579796408,60,73.4,-36.74,-72.3,5.82
174,santa isabel,90,BR,1579796408,100,73.4,-23.32,-46.22,5.82
175,castro,100,BR,1579796401,96,62.04,-24.79,-50.01,4.54
176,yar-sale,100,RU,1579796408,94,11.17,66.83,70.83,11.63
177,orangeburg,1,US,1579796368,60,44.6,33.49,-80.86,8.05
178,saint helens,90,GB,1579796408,93,48.0,53.45,-2.73,4.7
179,devils lake,90,US,1579796238,100,19.4,48.11,-98.87,9.17
180,carbondale,90,US,1579796410,64,39.2,37.73,-89.22,8.05
181,cayenne,10,GF,1579796410,55,86.0,4.93,-52.33,9.17
182,mazagao,40,BR,1579796410,62,87.8,-0.12,-51.29,8.05
183,valls,20,ES,1579796410,71,57.0,41.29,1.25,4.7
184,kangasala,75,FI,1579796411,85,33.01,61.5,24.08,11.41
185,linxi,37,CN,1579796411,80,35.01,39.7,118.43,10.49
186,ambon,71,ID,1579796411,77,81.09,-3.7,128.18,7.67
187,huarmey,99,PE,1579796411,71,73.8,-10.07,-78.15,4.07
188,east london,75,ZA,1579796411,78,71.6,-33.02,27.91,11.41
189,maddaloni,0,IT,1579796411,62,57.2,41.04,14.38,4.7
190,fortuna,90,US,1579796112,81,57.0,40.6,-124.16,4.99
191,coxcatlan,0,MX,1579796412,69,60.93,18.27,-97.15,3.8
192,ibra,0,OM,1579796412,57,69.22,22.69,58.53,13.18
193,souillac,75,MU,1579796412,74,84.2,-20.52,57.52,3.36
194,kayerkan,75,RU,1579796412,84,1.4,69.35,87.76,22.37
195,natal,75,BR,1579796412,66,87.8,-5.79,-35.21,14.99
196,airai,57,TL,1579796413,92,67.46,-8.93,125.41,3.87
197,margate,75,GB,1579796413,100,46.99,51.38,1.39,3.36
198,kavaratti,0,IN,1579796413,70,83.34,10.57,72.64,6.64
199,ayan,94,RU,1579796413,63,-13.43,56.45,138.17,2.98
200,omboue,89,GA,1579796414,75,85.51,-1.57,9.26,5.1
201,borovoy,90,RU,1579796415,92,24.8,55.43,86.08,17.9
202,vao,26,NC,1579796415,70,77.9,-22.67,167.48,13.31
203,cidreira,91,BR,1579796151,78,72.64,-30.18,-50.21,13.98
204,noumea,0,NC,1579796416,82,79.0,-22.28,166.46,3.36
205,longhua,37,CN,1579796416,81,66.36,23.61,114.19,1.19
206,jensen beach,90,US,1579796238,68,75.0,27.25,-80.23,6.93
207,tuktoyaktuk,75,CA,1579796399,75,-13.0,69.45,-133.04,9.17
208,lianzhou,100,CN,1579796416,82,54.68,24.78,112.38,7.45
209,nalut,21,LY,1579796417,16,70.65,30.33,10.85,13.96
210,zhicheng,100,CN,1579796417,91,43.0,30.3,111.5,3.58
211,ankazoabo,17,MG,1579796417,67,78.48,-22.28,44.52,8.08
212,oppdal,40,NO,1579796417,92,30.85,62.59,9.69,24.05
213,tres arroyos,0,AR,1579796417,29,90.82,-38.37,-60.28,16.22
214,rovaniemi,90,FI,1579796417,85,19.4,66.5,25.72,10.29
215,kaitangata,0,NZ,1579796396,86,56.95,-46.28,169.85,6.51
216,gat,20,IL,1579796151,67,57.99,31.61,34.76,11.41
217,guantanamo,20,CU,1579796418,50,75.2,20.14,-75.21,8.05
218,myaundzha,81,RU,1579796418,92,-32.69,63.05,147.19,2.73
219,khatima,0,IN,1579796418,78,52.14,28.92,79.97,3.91
220,oneida,1,US,1579796418,63,33.01,43.2,-75.47,5.82
221,tilichiki,100,RU,1579796418,92,-22.76,60.47,166.1,9.71
222,la palma,1,US,1579796156,81,57.99,33.85,-118.05,1.68
223,opelousas,90,US,1579796419,87,57.2,30.53,-92.08,13.87
224,porbandar,100,IN,1579796419,52,74.05,21.64,69.61,17.31
225,puerto del rosario,40,ES,1579796419,49,69.8,28.5,-13.86,9.17
226,port macquarie,88,AU,1579796419,100,75.99,-31.43,152.92,16.84
227,mormugao,0,IN,1579796419,65,82.4,15.4,73.8,6.93
228,bairiki,75,KI,1579796419,78,82.4,1.33,172.98,8.05
229,ancud,75,CL,1579796419,63,66.2,-41.87,-73.82,3.36
230,ginir,92,ET,1579796420,38,71.08,7.13,40.7,6.58
231,camana,100,PE,1579796420,89,67.5,-16.62,-72.71,3.87
232,uglovskoye,100,RU,1579796420,75,27.93,51.36,80.19,23.26
233,clyde river,40,CA,1579796420,75,-18.4,70.47,-68.59,19.46
234,west wendover,1,US,1579796420,80,30.2,40.74,-114.07,6.93
235,lopatino,85,RU,1579796420,94,20.08,52.62,45.81,9.73
236,grindavik,75,IS,1579796212,68,32.0,63.84,-22.43,42.5
237,guaruja,90,BR,1579796222,94,72.0,-23.99,-46.26,5.82
238,mahebourg,75,MU,1579796421,74,84.2,-20.41,57.7,3.36
239,sitka,90,US,1579796421,65,44.6,57.05,-135.33,14.99
240,chuy,28,UY,1579796421,52,79.77,-33.7,-53.46,10.36
241,marrakesh,75,MA,1579796196,51,62.6,31.63,-8.01,2.24
242,sorong,0,ID,1579796421,89,73.74,-0.88,131.25,3.38
243,kamwenge,100,UG,1579796422,37,82.71,0.19,30.45,2.53
244,abu samrah,52,SY,1579796422,77,48.04,35.3,37.18,10.69
245,isangel,39,VU,1579796422,79,75.61,-19.55,169.27,12.3
246,aykhal,0,RU,1579796422,64,-43.6,66.0,111.5,2.24
247,bilma,5,NE,1579796422,9,78.66,18.69,12.92,7.11
248,shamary,100,RU,1579796422,97,15.49,57.34,58.22,4.59
249,kyshtovka,100,RU,1579796422,92,29.23,56.55,76.63,17.34
250,baoshan,30,CN,1579796422,78,3.49,46.56,131.42,13.02
251,luderitz,0,NA,1579796423,50,78.8,-26.65,15.16,11.41
252,aguimes,40,ES,1579796423,59,66.99,27.91,-15.45,4.7
253,derzhavinsk,100,KZ,1579796423,97,31.89,51.1,66.32,22.86
254,zhigansk,97,RU,1579796423,98,-27.06,66.77,123.37,5.97
255,charters towers,100,AU,1579796423,80,76.69,-20.1,146.27,10.02
256,bourges,100,FR,1579796423,65,41.0,47.25,2.42,4.7
257,ucluelet,90,CA,1579796377,100,50.0,48.93,-125.55,2.24
258,gualeguay,0,AR,1579796424,33,89.83,-33.14,-59.31,8.81
259,kamen-rybolov,0,RU,1579796424,75,5.99,44.75,132.04,7.11
260,suruc,75,TR,1579796424,60,41.0,36.98,38.42,5.82
261,kavarna,20,BG,1579796424,44,41.0,43.43,28.33,11.41
262,blythe,1,US,1579796424,62,51.8,33.61,-114.6,3.06
263,osa,100,RU,1579796424,95,14.85,57.28,55.46,4.38
264,shimoda,100,JP,1579796397,91,50.0,34.67,138.95,21.61
265,san vicente,100,AR,1579796425,99,75.99,-26.62,-54.13,2.04
266,kinablangan,76,PH,1579796425,93,72.95,7.69,126.55,2.98
267,forbes,72,AU,1579796425,58,72.0,-33.38,148.02,13.4
268,makakilo city,1,US,1579796425,100,66.99,21.35,-158.09,2.59
269,abu kamal,0,SY,1579796425,58,51.37,34.45,40.92,5.79
270,mogadouro,60,PT,1579796425,59,51.08,41.34,-6.71,10.87
271,agirish,100,RU,1579796426,94,13.15,61.92,63.02,7.05
272,vardo,100,NO,1579796426,85,19.4,70.37,31.11,21.92
273,waipawa,83,NZ,1579796426,100,64.0,-41.41,175.52,2.24
274,inhambane,2,MZ,1579796426,63,78.93,-23.86,35.38,13.4
275,fairbanks,90,US,1579796234,69,-8.0,64.84,-147.72,0.94
276,richards bay,9,ZA,1579796426,76,77.25,-28.78,32.04,16.51
277,saint-pierre,90,RE,1579796426,83,82.4,-21.34,55.48,9.17
278,nouadhibou,62,MR,1579796220,46,73.4,20.93,-17.03,11.41
279,torbay,40,CA,1579796247,73,21.99,47.67,-52.73,16.11
280,skeldon,55,GY,1579796427,75,78.93,5.88,-57.13,12.28
281,edd,93,ER,1579796427,69,74.14,13.93,41.69,14.32
282,ambilobe,100,MG,1579796209,90,77.54,-13.2,49.05,17.4
283,awjilah,0,LY,1579796427,45,60.64,29.11,21.29,8.9
284,broken hill,0,AU,1579796427,32,66.2,-31.95,141.43,18.34
285,qaqortoq,75,GL,1579796428,44,17.6,60.72,-46.03,13.87
286,saskylakh,0,RU,1579796394,92,-36.09,71.92,114.08,10.83
287,pisco,75,PE,1579796428,30,81.0,-13.7,-76.22,9.17
288,eston,40,CA,1579796428,92,14.0,51.15,-108.75,5.82
289,klaksvik,100,FO,1579796428,64,37.4,62.23,-6.59,23.04
290,saint anthony,90,US,1579796385,92,32.0,45.02,-93.22,5.82
291,durban,75,ZA,1579796178,78,73.99,-29.86,31.03,6.93
292,cururupu,37,BR,1579796429,54,90.25,-1.83,-44.87,6.98
293,lompoc,1,US,1579796429,93,57.99,34.64,-120.46,5.82
294,batagay-alyta,8,RU,1579796429,80,-34.47,67.8,130.41,2.46
295,rocha,0,UY,1579796429,36,84.13,-34.48,-54.33,9.26
296,kloulklubed,75,PW,1579796400,88,78.8,7.04,134.26,8.05
297,anuradhapura,17,LK,1579796429,90,74.44,8.36,80.42,6.58
298,auki,28,SB,1579796429,69,84.2,-8.77,160.7,10.78
299,tongren,98,CN,1579796430,95,41.58,27.72,109.19,5.39
300,petatlan,40,MX,1579796430,66,84.2,17.52,-101.27,6.2
301,ilhabela,100,BR,1579796430,82,73.67,-23.78,-45.36,8.99
302,antalaha,100,MG,1579796430,82,78.31,-14.9,50.28,8.86
303,kargopol,100,RU,1579796430,84,18.43,61.51,38.95,11.74
304,boyolangu,100,ID,1579796430,90,76.33,-8.12,111.89,0.81
305,ust-ordynskiy,100,RU,1579796430,70,1.4,52.8,104.75,11.18
306,sarakhs,90,IR,1579796431,71,51.8,36.54,61.16,6.93
307,tautira,0,PF,1579796219,78,78.8,-17.73,-149.15,2.24
308,ratnagiri,0,IN,1579796431,56,71.98,16.98,73.3,3.09
309,college,90,US,1579796184,69,-8.0,64.86,-147.8,1.39
310,lata,40,PT,1579796431,76,55.99,40.16,-8.33,5.82
311,yelizovo,0,RU,1579796431,64,-4.0,53.19,158.38,4.47
312,taksimo,100,RU,1579796402,92,-17.0,56.34,114.88,1.95
313,fuerte olimpo,96,PY,1579796432,68,82.81,-21.04,-57.87,10.6
314,dingle,7,PH,1579796432,87,73.35,11.0,122.67,11.03
315,vila,20,PT,1579796432,62,60.01,42.03,-8.16,1.12
316,rosarito,20,MX,1579796432,76,55.99,32.33,-117.03,4.7
317,marzuq,0,YE,1579796218,56,67.86,14.4,46.47,9.93
318,albanel,90,CA,1579796185,69,33.8,48.88,-72.45,12.75
319,xining,100,CN,1579796433,89,19.09,36.62,101.77,5.14
320,helong,0,CN,1579796433,92,2.01,42.54,129.0,4.12
321,tengushevo,100,RU,1579796433,86,20.48,54.77,42.72,8.66
322,shcheglovo,73,RU,1579796433,67,32.0,60.03,30.75,8.95
323,tineo,20,ES,1579796433,87,54.0,43.34,-6.41,5.82
324,grand gaube,75,MU,1579796433,74,84.2,-20.01,57.66,3.36
325,saurimo,75,AO,1579796433,94,71.6,-9.66,20.39,5.61
326,amuntai,15,ID,1579796434,81,77.81,-2.42,115.25,3.04
327,alice springs,50,AU,1579796434,23,86.0,-23.7,133.88,9.17
328,shahr-e babak,100,IR,1579796434,78,40.41,30.12,55.12,16.82
329,sabha,90,LY,1579796434,18,66.58,27.04,14.43,8.79
330,gorontalo,87,ID,1579796434,91,74.37,0.54,123.06,3.62
331,linxia,100,CN,1579796434,95,19.69,35.6,103.21,4.29
332,yulin,27,CN,1579796435,89,65.12,22.63,110.15,5.41
333,broome,1,US,1579796435,46,33.01,42.25,-75.83,5.82
334,vitoria,40,BR,1579796435,74,82.4,-20.32,-40.34,12.75
335,novyy urengoy,100,RU,1579796435,94,6.69,66.08,76.63,15.01
336,manzanillo,10,CU,1579796435,55,68.36,20.34,-77.12,4.14
337,te anau,4,NZ,1579796435,76,52.88,-45.42,167.72,3.71
338,winslow,1,US,1579796435,80,37.99,35.02,-110.7,3.87
339,obo,100,CF,1579796436,14,89.46,5.4,26.49,6.42
340,luba,20,GQ,1579796436,74,87.8,3.46,8.55,9.17
341,high rock,40,BS,1579796436,73,71.6,26.62,-78.28,13.87
342,general pico,0,AR,1579796436,23,94.82,-35.66,-63.76,16.44
343,omis,0,HR,1579796436,46,53.6,43.44,16.69,3.36
344,cienfuegos,20,CU,1579796436,56,73.4,22.15,-80.44,4.7
345,santiago del estero,0,AR,1579796436,38,87.48,-27.8,-64.26,5.61
346,banamba,98,ML,1579796224,10,98.51,13.55,-7.45,11.99
347,eydhafushi,64,MV,1579796437,81,83.25,5.1,73.07,22.37
348,kavieng,75,PG,1579796437,75,82.83,-2.57,150.8,10.04
349,kungurtug,56,RU,1579796437,82,-4.23,50.6,97.52,4.63
350,yantal,13,RU,1579796437,90,-12.98,56.85,105.25,4.18
351,dalvik,90,IS,1579796438,54,30.2,65.97,-18.53,57.49
352,mingguang,100,CN,1579796438,75,44.74,32.78,117.96,8.79
353,iguape,100,BR,1579796391,97,70.72,-24.71,-47.56,2.42
354,hamilton,90,US,1579796438,64,41.0,39.18,-84.53,5.77
355,nago,75,JP,1579796426,88,69.8,26.59,127.98,3.36
356,meulaboh,83,ID,1579796438,66,85.26,4.14,96.13,3.06
357,ertil,83,RU,1579796438,90,21.88,51.84,40.81,13.51
358,jiancheng,40,CN,1579796439,93,51.01,30.39,104.55,1.52
359,camacupa,100,AO,1579796439,73,76.95,-12.02,17.48,4.27
360,tegal,100,ID,1579796439,90,77.5,-6.87,109.14,6.89
361,roma,1,US,1579796164,63,32.0,43.21,-75.46,5.82
362,road town,40,VG,1579796439,74,82.4,18.42,-64.62,9.17
363,longyearbyen,20,SJ,1579796395,60,6.8,78.22,15.64,39.15
364,saint-joseph,90,RE,1579796439,83,82.4,-21.37,55.62,9.17
365,el balsamo,20,HN,1579796440,69,75.2,15.07,-87.47,6.93
366,puerto madero,5,MX,1579796440,70,84.2,14.72,-92.42,3.36
367,takayama,100,JP,1579796440,89,48.0,36.13,137.25,4.14
368,ostrovnoy,96,RU,1579796440,93,19.9,68.05,39.51,10.8
369,liverpool,90,GB,1579796440,100,48.2,53.41,-2.98,2.24
370,marevo,62,RU,1579796440,62,28.18,57.31,32.08,7.49
371,novyy urgal,100,RU,1579796440,99,-9.45,51.07,132.56,0.43
372,rock sound,0,BS,1579796441,71,72.77,24.9,-76.2,24.34
373,kununurra,40,AU,1579796441,94,78.8,-15.77,128.73,5.82
374,baiyin,90,CN,1579796441,58,24.8,36.56,104.21,8.95
375,alexandria,40,EG,1579796166,67,60.8,31.22,29.96,17.22
376,paso de los toros,20,UY,1579796441,51,82.4,-32.82,-56.52,11.41
377,heiligenhafen,75,DE,1579796441,70,43.0,54.37,10.98,11.41
378,krasnoselkup,98,RU,1579796427,93,5.31,65.7,82.47,14.03
379,naryan-mar,100,RU,1579796442,93,8.44,67.67,53.09,16.55
380,cangucu,75,BR,1579796442,54,84.2,-31.39,-52.68,13.87
381,santa rosa,75,PH,1579796442,74,78.8,14.31,121.11,6.93
382,buin,47,CL,1579796416,44,77.0,-33.73,-70.75,5.82
383,chhuikhadan,43,IN,1579796442,46,70.18,21.53,80.98,9.22
384,udomlya,100,RU,1579796442,85,24.26,57.88,34.99,11.21
385,rio grande,75,BR,1579796442,54,84.2,-32.03,-52.1,13.87
386,khandyga,45,RU,1579796223,99,-35.52,62.67,135.6,1.05
387,smoky lake,93,CA,1579796443,93,6.01,54.12,-112.47,1.01
388,wynyard,14,AU,1579796443,93,52.0,-41.0,145.72,8.01
389,sambava,100,MG,1579796443,99,75.45,-14.27,50.17,1.74
390,lavrentiya,0,RU,1579796443,78,-14.75,65.58,-171.0,3.2
391,diego de almagro,58,CL,1579796443,37,77.18,-26.37,-70.05,8.68
392,moncton,75,CA,1579796444,86,33.8,46.12,-64.8,18.34
393,quelimane,97,MZ,1579796444,72,81.09,-17.88,36.89,11.63
394,salina,90,US,1579796162,86,39.2,38.84,-97.61,12.75
395,batticaloa,39,LK,1579796431,89,75.69,7.71,81.69,4.92
396,port blair,84,IN,1579796393,77,80.73,11.67,92.75,13.71
397,araguacu,100,BR,1579796444,96,74.05,-12.93,-49.83,6.93
398,agadez,10,NE,1579796444,9,79.97,19.75,10.25,5.5
399,iqaluit,40,CA,1579796444,67,-23.01,63.75,-68.51,23.04
400,ndola,100,ZM,1579796445,89,72.81,-12.96,28.64,2.95
401,north branch,90,US,1579796390,97,33.01,45.51,-92.98,5.82
402,itoman,75,JP,1579796445,88,69.8,26.12,127.67,3.36
403,garwa,12,IN,1579796445,46,57.52,24.18,83.82,5.66
404,poya,0,NC,1579796445,77,77.27,-21.35,165.15,5.06
405,lixourion,20,GR,1579796445,82,55.4,38.2,20.43,6.93
406,sindhnur,0,IN,1579796446,39,75.47,15.78,76.77,5.03
407,sabang,100,ID,1579796223,79,82.53,5.89,95.32,13.42
408,almeirim,100,BR,1579796446,45,89.6,-1.52,-52.58,5.41
409,amarante do maranhao,100,BR,1579796446,84,81.81,-5.57,-46.74,1.01
410,vanimo,95,PG,1579796446,77,82.78,-2.67,141.3,6.17
411,baghdad,75,IQ,1579796283,66,55.4,33.34,44.4,3.36
412,belmonte,90,BR,1579796446,94,80.6,-15.86,-38.88,11.41
413,flinders,90,AU,1579796447,41,80.01,-34.58,150.86,14.99
414,sosnovo-ozerskoye,0,RU,1579796447,89,-15.34,52.52,111.54,5.73
415,kamyaran,75,IR,1579796447,74,35.6,34.8,46.94,6.93
416,ahipara,3,NZ,1579796447,100,60.01,-35.17,173.17,7.16
417,elk city,75,US,1579796447,80,44.01,35.41,-99.4,20.8
418,lavumisa,18,SZ,1579796447,48,84.2,-27.31,31.89,9.17
419,am timan,0,TD,1579796447,7,87.94,11.03,20.28,6.76
420,tshikapa,100,CD,1579796448,67,84.07,-6.42,20.8,5.82
421,champerico,5,GT,1579796435,58,84.2,14.3,-91.92,6.93
422,okhotsk,96,RU,1579796448,86,-16.8,59.38,143.3,5.99
423,deputatskiy,66,RU,1579796195,94,-29.07,69.3,139.9,2.64
424,ko samui,20,TH,1579796408,78,82.4,9.54,99.94,9.17
425,lexington,20,US,1579796316,33,46.4,37.99,-84.48,9.17
426,srednekolymsk,100,RU,1579796449,97,-34.58,67.45,153.68,6.62
427,vanavara,33,RU,1579796449,95,-14.49,60.34,102.28,4.92
428,olavarria,0,AR,1579796449,63,82.99,-36.89,-60.32,4.0
429,khasan,0,RU,1579796449,60,17.08,42.43,130.64,14.97
430,roebourne,0,AU,1579796449,47,86.95,-20.78,117.13,12.86
431,sonoita,0,MX,1579796449,73,55.0,31.85,-112.83,5.75
432,tura,0,IN,1579796450,49,57.15,25.52,90.22,1.45
433,bonavista,0,CA,1579796450,80,19.99,48.65,-53.11,18.01
434,bella vista,90,US,1579796450,100,37.4,36.43,-94.23,5.82
435,asau,0,RO,1579796450,59,34.0,46.43,26.4,10.29
436,guangyuan,100,CN,1579796450,62,51.01,32.44,105.82,5.88
437,atambua,80,ID,1579796450,84,76.01,-9.11,124.89,1.14
438,kimbe,100,PG,1579796450,95,75.13,-5.55,150.14,1.99
439,juneau,90,US,1579796451,96,34.0,58.3,-134.42,6.22
440,sanming,60,CN,1579796451,88,60.15,26.25,117.62,2.82
441,mount gambier,40,AU,1579796451,81,53.6,-37.83,140.77,9.17
442,kesinga,46,IN,1579796451,46,72.61,20.2,83.23,3.44
443,conway,90,US,1579796152,93,41.0,35.09,-92.44,8.05
444,kinlochleven,100,GB,1579796451,93,48.0,56.71,-4.97,1.01
445,da nang,75,VN,1579796451,83,77.0,16.07,108.22,4.7
446,northam,90,GB,1579796403,93,43.0,51.03,-4.22,4.7
447,correntina,100,BR,1579796452,95,70.97,-13.34,-44.64,5.93
448,tolaga bay,0,NZ,1579796452,73,67.64,-38.37,178.3,8.39
449,ulladulla,90,AU,1579796452,41,79.0,-35.35,150.47,14.99
450,priargunsk,0,RU,1579796452,76,-17.41,50.37,119.1,3.87
451,hanzhong,100,CN,1579796452,66,45.5,33.07,107.03,8.12
452,marsaxlokk,75,MT,1579796452,67,57.99,35.84,14.54,9.17
453,oussouye,100,SN,1579796453,74,86.0,12.48,-16.55,2.24
454,beroroha,100,MG,1579796453,67,80.64,-21.67,45.17,6.85
455,nantucket,1,US,1579796385,71,44.6,41.28,-70.1,10.29
456,egvekinot,8,RU,1579796453,100,-23.51,66.32,-179.17,0.83
457,codrington,95,AU,1579796393,70,60.33,-38.27,141.97,28.05
458,ligayan,6,PH,1579796453,80,81.63,4.65,119.47,10.67
459,loukhi,88,RU,1579796453,90,7.12,66.08,33.04,3.85
460,paciran,90,ID,1579796454,87,78.4,-6.88,112.38,2.3
461,pampa,75,US,1579796285,60,44.6,35.54,-100.96,8.05
462,strezhevoy,90,RU,1579796454,85,23.0,60.73,77.59,11.18
463,abnub,0,EG,1579796454,58,57.2,27.27,31.15,12.75
464,paracatu,100,BR,1579796454,94,68.5,-17.22,-46.87,8.32
465,gunupur,35,IN,1579796454,73,68.05,19.08,83.82,3.74
466,namie,36,JP,1579796455,94,39.99,37.48,141.0,1.99
467,eyl,23,SO,1579796455,84,78.4,7.98,49.82,23.78
468,senneterre,90,CA,1579796455,100,30.2,48.38,-77.23,4.7
469,prescott valley,1,US,1579796399,80,46.4,34.59,-112.33,3.36
470,port lincoln,0,AU,1579796455,67,58.5,-34.73,135.87,10.36
471,fremont,75,US,1579796455,87,52.0,37.55,-121.99,1.92
472,jishu,0,CN,1579796455,90,-1.97,44.32,126.8,8.43
473,praia da vitoria,40,PT,1579796201,72,60.8,38.73,-27.07,14.29
474,albion,90,US,1579796456,59,35.6,42.24,-84.75,9.17
475,chamalieres,100,FR,1579796456,80,41.0,45.78,3.06,2.24
476,half moon bay,1,US,1579796456,93,52.0,37.46,-122.43,5.82
477,praia,3,CV,1579796456,51,82.4,14.92,-23.51,18.34
478,ngama,0,TD,1579796456,7,86.92,11.78,17.17,14.56
479,jinxiang,0,CN,1579796456,90,66.94,22.86,115.7,0.76
480,mugla,0,TR,1579796457,37,59.0,37.23,28.36,13.87
481,san pedro,75,PH,1579796457,74,78.8,14.35,121.02,6.93
482,enid,1,US,1579796457,100,43.0,36.4,-97.88,17.22
483,kichera,99,RU,1579796457,93,-12.93,55.94,110.1,3.22
484,hakui,75,JP,1579796457,93,48.2,36.88,136.78,3.36
485,bereda,26,ES,1579796457,62,55.4,43.27,-7.54,2.24
486,wanning,32,CN,1579796458,81,70.99,18.8,110.4,5.66
487,marienburg,90,PL,1579796458,93,39.99,54.04,19.03,14.99
488,teguise,20,ES,1579796458,56,69.8,29.06,-13.56,10.29
489,palmares do sul,2,BR,1579796458,61,78.76,-30.26,-50.51,14.27
490,vendome,85,FR,1579796458,86,39.2,47.8,1.07,10.29
491,vila do maio,0,CV,1579796458,51,82.4,15.13,-23.22,18.34
492,touros,75,BR,1579796459,70,86.0,-5.2,-35.46,14.99
493,walvis bay,15,NA,1579796410,57,75.2,-22.96,14.51,14.99
494,peniche,20,PT,1579796337,76,55.99,39.36,-9.38,4.7
495,henties bay,0,NA,1579796459,82,72.0,-22.12,14.28,5.01
496,mpika,100,ZM,1579796459,97,64.38,-11.83,31.45,4.0
497,garissa,100,KE,1579796459,34,93.51,-0.45,39.64,6.62
498,eirunepe,97,BR,1579796460,55,90.52,-6.66,-69.87,2.55
499,carandai,90,BR,1579796343,93,66.2,-20.95,-43.81,3.36
500,labuhan,59,ID,1579796460,85,78.46,-6.88,112.21,2.35
501,encruzilhada do sul,24,BR,1579796460,47,81.16,-30.54,-52.52,9.4
502,chabahar,67,IR,1579796460,68,69.96,25.29,60.64,11.14
503,biak,100,ID,1579796460,68,82.11,-0.91,122.88,7.23
504,sao joao da barra,100,BR,1579796427,55,86.0,-21.64,-41.05,7.07
505,san cristobal,40,VE,1579796461,78,78.8,7.77,-72.22,4.7
506,porto novo,20,BJ,1579796461,70,87.8,6.5,2.6,9.17
507,kundiawa,100,PG,1579796461,99,56.68,-6.02,144.97,1.07
508,menomonie,90,US,1579796461,86,33.01,44.88,-91.92,4.7
509,kigoma,100,TZ,1579796461,68,78.06,-4.88,29.63,5.7
510,turayf,75,SA,1579796461,75,46.4,31.67,38.66,11.41
511,oksfjord,90,NO,1579796462,86,30.2,70.24,22.35,17.22
512,sungaipenuh,90,ID,1579796462,98,64.83,-2.08,101.38,2.08
513,savannah bight,98,HN,1579796462,72,75.76,16.45,-85.85,13.09
514,aranda de duero,45,ES,1579796462,55,48.07,41.67,-3.69,6.76
515,lake havasu city,1,US,1579796360,54,55.4,34.48,-114.32,5.82
516,totma,95,RU,1579796462,88,17.87,59.97,42.76,9.1
517,hambantota,0,LK,1579796438,94,80.6,6.12,81.12,11.41
518,conde,75,BR,1579796209,79,84.2,-7.26,-34.91,9.17
519,kudahuvadhoo,98,MV,1579796463,82,83.41,2.67,72.89,21.45
520,ust-nera,91,RU,1579796463,99,-36.18,64.57,143.2,1.21
521,mishan,0,CN,1579796463,79,3.06,45.55,131.88,10.6
522,kalabo,88,ZM,1579796384,58,82.09,-14.97,22.68,6.31
523,kirkwall,90,GB,1579796463,93,50.0,58.98,-2.96,23.04
524,ulaangom,100,MN,1579796464,88,-4.18,49.98,92.07,2.59
525,tigzirt,0,DZ,1579796464,78,57.24,36.89,4.12,11.16
526,dafeng,6,CN,1579796464,92,63.5,23.45,108.59,3.85
527,kiruna,75,SE,1579796464,92,24.8,67.86,20.23,18.34
528,hovd,31,MN,1579796384,54,7.45,48.01,91.64,5.01
529,mnogovershinnyy,35,RU,1579796464,95,-10.79,53.94,139.92,1.12
530,caravelas,100,BR,1579796385,81,78.85,-17.71,-39.25,20.42
531,batemans bay,36,AU,1579796465,79,66.99,-35.72,150.18,7.0
532,koudougou,69,BF,1579796465,6,100.65,12.25,-2.37,15.05
533,bambous virieux,75,MU,1579796465,74,84.2,-20.34,57.76,3.36
534,ishimbay,97,RU,1579796465,96,17.15,53.45,56.04,5.53
535,khromtau,100,KZ,1579796465,97,28.83,50.25,58.43,11.21
536,petrovsk,82,RU,1579796465,93,20.01,52.31,45.39,9.66
537,tsiroanomandidy,56,MG,1579796466,83,74.64,-18.77,46.03,3.89
538,baglan,40,AF,1579796466,40,36.45,36.13,68.71,5.53
539,kahului,1,US,1579796322,82,64.99,20.89,-156.47,4.7
540,dunedin,0,NZ,1579796225,93,57.99,-45.87,170.5,1.01
541,yaan,65,NG,1579796466,7,98.98,7.38,8.57,11.36
542,belyy yar,100,RU,1579796466,84,6.8,53.6,91.39,5.39
543,halifax,90,CA,1579796201,80,36.0,44.65,-63.57,12.75
544,fukue,90,JP,1579796467,87,57.2,32.69,128.84,9.17
545,coari,100,BR,1579796467,96,77.49,-4.08,-63.14,4.07
546,mao,20,ES,1579796467,77,59.0,39.89,4.27,1.12
547,saint-augustin,100,CA,1579796268,90,26.29,51.23,-58.65,20.92
548,preobrazheniye,24,RU,1579796467,65,21.04,42.9,133.91,7.78
549,hauterive,100,FR,1579796467,80,41.0,46.09,3.45,2.24
550,kamenka,88,RU,1579796468,89,27.0,51.32,42.77,8.01
551,wajima,100,JP,1579796436,86,50.4,37.4,136.9,14.5
552,borogontsy,100,RU,1579796468,98,-25.08,62.67,131.17,3.0
553,riyadh,20,SA,1579796320,33,57.2,24.69,46.72,10.29
554,severodvinsk,40,RU,1579796468,86,26.6,64.56,39.83,8.95
555,jiazi,0,CN,1579796468,90,66.56,22.88,116.07,4.52
556,timbiqui,27,CO,1579796468,75,82.2,2.77,-77.67,4.05
557,chokwe,90,MZ,1579796468,58,84.0,-24.53,32.98,8.86
558,yuancheng,100,CN,1579796469,69,25.27,36.65,107.79,3.76
559,seoul,1,KR,1579796196,92,37.4,37.57,126.98,1.12
560,nambucca heads,100,AU,1579796469,88,80.01,-30.65,153.0,12.75
561,palmeira das missoes,83,BR,1579796469,77,70.75,-27.9,-53.31,15.48
562,muli,97,MV,1579796410,82,83.75,2.92,73.57,20.51
563,gambela,70,ET,1579796469,17,94.55,8.25,34.58,6.46
564,saint george,1,US,1579796296,93,39.99,37.1,-113.58,0.83
565,srandakan,100,ID,1579796470,89,76.87,-7.94,110.25,3.89
566,vestmannaeyjar,20,IS,1579796470,65,32.0,63.44,-20.27,34.45
567,lima,90,PE,1579796410,69,78.8,-12.04,-77.03,8.05
568,ukiah,90,US,1579796470,100,48.0,39.15,-123.21,2.1
569,ixtapa,90,MX,1579796470,78,77.0,20.7,-105.2,0.51
570,monrovia,75,LR,1579796235,63,91.4,6.3,-10.8,4.7
